stop_id,stop_code,stop_desc,line,stop_sequence,stop_name,platform_code,platform_name,stop_lat,stop_lon,zone_id,stop_address,stop_url,level_id,location_type,parent_station,wheelchair_boarding,municipality,on_street,at_street,vehicle_type
70038,70038,Bowdoin - Blue Line - Wonderland,Blue,1,Bowdoin,,Wonderland,42.361365,-71.062037,RapidTransit,,https://www.mbta.com/stops/place-bomnl,level_-1_platform,0,place-bomnl,2,Boston,,,1
70838,70838,Bowdoin - Blue Line - Exit Only,Blue,12,Bowdoin,,Exit Only,42.361365,-71.062037,RapidTransit,,https://www.mbta.com/stops/place-bomnl,level_-1_platform,0,place-bomnl,2,Boston,,,1
70039,70039,Government Center - Blue Line - Bowdoin,Blue,11,Government Center,,Bowdoin,42.359705,-71.059215,RapidTransit,,https://www.mbta.com/stops/place-gover,level_-2_blue_platform,0,place-gover,1,Boston,,,1
70040,70040,Government Center - Blue Line - Wonderland,Blue,2,Government Center,,Wonderland,42.359705,-71.059215,RapidTransit,,https://www.mbta.com/stops/place-gover,level_-2_blue_platform,0,place-gover,1,Boston,,,1
70041,70041,State - Blue Line - Bowdoin,Blue,10,State,,Bowdoin,42.358978,-71.057598,RapidTransit,,https://www.mbta.com/stops/place-state,level_-1_up_platform,0,place-state,1,Boston,,,1
70042,70042,State - Blue Line - Wonderland,Blue,3,State,,Wonderland,42.358978,-71.057598,RapidTransit,,https://www.mbta.com/stops/place-state,level_-1_up_platform,0,place-state,1,Boston,,,1
70043,70043,Aquarium - Blue Line - Bowdoin,Blue,9,Aquarium,1,Bowdoin,42.359784,-71.051652,RapidTransit,,https://www.mbta.com/stops/place-aqucl,level_-2_platform,0,place-aqucl,1,Boston,,,1
70044,70044,Aquarium - Blue Line - Wonderland,Blue,4,Aquarium,2,Wonderland,42.359784,-71.051652,RapidTransit,,https://www.mbta.com/stops/place-aqucl,level_-2_platform,0,place-aqucl,1,Boston,,,1
70045,70045,Maverick - Blue Line - Bowdoin,Blue,8,Maverick,,Bowdoin,42.369119,-71.03953,RapidTransit,,https://www.mbta.com/stops/place-mvbcl,level_-1_platform,0,place-mvbcl,1,Boston,,,1
70046,70046,Maverick - Blue Line - Wonderland,Blue,5,Maverick,,Wonderland,42.369119,-71.03953,RapidTransit,,https://www.mbta.com/stops/place-mvbcl,level_-1_platform,0,place-mvbcl,1,Boston,,,1
70047,70047,Airport - Blue Line - Bowdoin,Blue,7,Airport,,Bowdoin,42.374262,-71.030395,RapidTransit,,https://www.mbta.com/stops/place-aport,level_0_platform,0,place-aport,1,Boston,,,1
70048,70048,Airport - Blue Line - Wonderland,Blue,6,Airport,,Wonderland,42.374262,-71.030395,RapidTransit,,https://www.mbta.com/stops/place-aport,level_0_platform,0,place-aport,1,Boston,,,1
70049,70049,Wood Island - Blue Line - Bowdoin,Blue,6,Wood Island,1,Bowdoin,42.37974,-71.022818,RapidTransit,,https://www.mbta.com/stops/place-wimnl,level_0_platform,0,place-wimnl,1,Boston,,,1
70050,70050,Wood Island - Blue Line - Wonderland,Blue,7,Wood Island,2,Wonderland,42.379671,-71.022783,RapidTransit,,https://www.mbta.com/stops/place-wimnl,level_0_platform,0,place-wimnl,1,Boston,,,1
70051,70051,Orient Heights - Blue Line - Bowdoin,Blue,5,Orient Heights,,Bowdoin,42.386909,-71.004809,RapidTransit,,https://www.mbta.com/stops/place-orhte,level_0_platform,0,place-orhte,1,Boston,,,1
70052,70052,Orient Heights - Blue Line - Wonderland,Blue,8,Orient Heights,,Wonderland,42.386842,-71.004767,RapidTransit,,https://www.mbta.com/stops/place-orhte,level_0_platform,0,place-orhte,1,Boston,,,1
70053,70053,Suffolk Downs - Blue Line - Bowdoin,Blue,4,Suffolk Downs,1,Bowdoin,42.390422,-70.997323,RapidTransit,,https://www.mbta.com/stops/place-sdmnl,level_0_platform,0,place-sdmnl,1,Boston,,,1
70054,70054,Suffolk Downs - Blue Line - Wonderland,Blue,9,Suffolk Downs,2,Wonderland,42.39061,-70.99703,RapidTransit,,https://www.mbta.com/stops/place-sdmnl,level_0_platform,0,place-sdmnl,1,Boston,,,1
70055,70055,Beachmont - Blue Line - Bowdoin,Blue,3,Beachmont,1,Bowdoin,42.397219,-70.992647,RapidTransit,,https://www.mbta.com/stops/place-bmmnl,level_1_platform,0,place-bmmnl,1,Revere,,,1
70056,70056,Beachmont - Blue Line - Wonderland,Blue,10,Beachmont,2,Wonderland,42.397204,-70.992551,RapidTransit,,https://www.mbta.com/stops/place-bmmnl,level_1_platform,0,place-bmmnl,1,Revere,,,1
70057,70057,Revere Beach - Blue Line - Bowdoin,Blue,2,Revere Beach,1,Bowdoin,42.40776,-70.992586,RapidTransit,,https://www.mbta.com/stops/place-rbmnl,level_-1_platform,0,place-rbmnl,1,Revere,,,1
70058,70058,Revere Beach - Blue Line - Wonderland,Blue,11,Revere Beach,2,Wonderland,42.407874,-70.992497,RapidTransit,,https://www.mbta.com/stops/place-rbmnl,level_-1_platform,0,place-rbmnl,1,Revere,,,1
70059,70059,Wonderland - Blue Line - Bowdoin,Blue,1,Wonderland,1,Bowdoin,42.413514,-70.991714,RapidTransit,,https://www.mbta.com/stops/place-wondl,level_0_platform,0,place-wondl,1,Revere,,,1
70060,70060,Wonderland - Blue Line - Exit Only,Blue,12,Wonderland,2,Exit Only,42.413361,-70.991685,RapidTransit,,https://www.mbta.com/stops/place-wondl,level_0_platform,0,place-wondl,1,Revere,,,1
70106,70106,Boston College - Green Line - Park Street & North,Green,,Boston College,,Park Street & North,42.340149,-71.167029,RapidTransit,,https://www.mbta.com/stops/place-lake,level_ground,0,place-lake,1,Boston,,,0
70107,70107,Boston College - Green Line - Exit Only,Green,,Boston College,,Exit Only,42.34024,-71.166849,RapidTransit,,https://www.mbta.com/stops/place-lake,level_ground,0,place-lake,1,Boston,,,0
70110,70110,South Street - Green Line - Park Street & North,Green,,South Street,,Park Street & North,42.339371,-71.157057,RapidTransit,,https://www.mbta.com/stops/place-sougr,level_median,0,place-sougr,2,Boston,,,0
70111,70111,South Street - Green Line - (B) Boston College,Green,,South Street,,Boston College,42.339581,-71.157499,RapidTransit,,https://www.mbta.com/stops/place-sougr,level_median,0,place-sougr,2,Boston,,,0
70112,70112,Chestnut Hill Avenue - Green Line - Park Street & North,Green,,Chestnut Hill Avenue,,Park Street & North,42.33873,-71.152526,RapidTransit,,https://www.mbta.com/stops/place-chill,level_median,0,place-chill,2,Boston,,,0
70113,70113,Chestnut Hill Avenue - Green Line - (B) Boston College,Green,,Chestnut Hill Avenue,,Boston College,42.33829,-71.153025,RapidTransit,,https://www.mbta.com/stops/place-chill,level_median,0,place-chill,2,Boston,,,0
70114,70114,Chiswick Road - Green Line - Park Street & North,Green,,Chiswick Road,,Park Street & North,42.340808,-71.150633,RapidTransit,,https://www.mbta.com/stops/place-chswk,level_median,0,place-chswk,2,Boston,,,0
70115,70115,Chiswick Road - Green Line - (B) Boston College,Green,,Chiswick Road,,Boston College,42.34054,-71.15114,RapidTransit,,https://www.mbta.com/stops/place-chswk,level_median,0,place-chswk,2,Boston,,,0
70116,70116,Sutherland Road - Green Line - Park Street & North,Green,,Sutherland Road,,Park Street & North,42.341589,-71.146089,RapidTransit,,https://www.mbta.com/stops/place-sthld,level_median,0,place-sthld,2,Boston,,,0
70117,70117,Sutherland Road - Green Line - (B) Boston College,Green,,Sutherland Road,,Boston College,42.341577,-71.146607,RapidTransit,,https://www.mbta.com/stops/place-sthld,level_median,0,place-sthld,2,Boston,,,0
70120,70120,Washington Street - Green Line - Park Street & North,Green,,Washington Street,,Park Street & North,42.344329,-71.142385,RapidTransit,,https://www.mbta.com/stops/place-wascm,level_median,0,place-wascm,1,Boston,,,0
70121,70121,Washington Street - Green Line - (B) Boston College,Green,,Washington Street,,Boston College,42.343974,-71.142731,RapidTransit,,https://www.mbta.com/stops/place-wascm,level_median,0,place-wascm,1,Boston,,,0
70124,70124,Warren Street - Green Line - Park Street & North,Green,,Warren Street,,Park Street & North,42.348285,-71.140436,RapidTransit,,https://www.mbta.com/stops/place-wrnst,level_median,0,place-wrnst,2,Boston,,,0
70125,70125,Warren Street - Green Line - (B) Boston College,Green,,Warren Street,,Boston College,42.348819,-71.140051,RapidTransit,,https://www.mbta.com/stops/place-wrnst,level_median,0,place-wrnst,2,Boston,,,0
70126,70126,Allston Street - Green Line - Park Street & North,Green,,Allston Street,,Park Street & North,42.348649,-71.137881,RapidTransit,,https://www.mbta.com/stops/place-alsgr,level_median,0,place-alsgr,2,Boston,,,0
70127,70127,Allston Street - Green Line - (B) Boston College,Green,,Allston Street,,Boston College,42.348546,-71.137362,RapidTransit,,https://www.mbta.com/stops/place-alsgr,level_median,0,place-alsgr,2,Boston,,,0
70128,70128,Griggs Street - Green Line - Park Street & North,Green,,Griggs Street,,Park Street & North,42.348747,-71.1345,RapidTransit,,https://www.mbta.com/stops/place-grigg,level_median,0,place-grigg,2,Boston,,,0
70129,70129,Griggs Street - Green Line - (B) Boston College,Green,,Griggs Street,,Boston College,42.348919,-71.134305,RapidTransit,,https://www.mbta.com/stops/place-grigg,level_median,0,place-grigg,2,Boston,,,0
70130,70130,Harvard Avenue - Green Line - Park Street & North,Green,,Harvard Avenue,,Park Street & North,42.350263,-71.131298,RapidTransit,,https://www.mbta.com/stops/place-harvd,level_median,0,place-harvd,1,Boston,,,0
70131,70131,Harvard Avenue - Green Line - (B) Boston College,Green,,Harvard Avenue,,Boston College,42.350602,-71.130727,RapidTransit,,https://www.mbta.com/stops/place-harvd,level_median,0,place-harvd,1,Boston,,,0
70134,70134,Packard's Corner - Green Line - Park Street & North,Green,,Packard's Corner,,Park Street & North,42.351891,-71.125067,RapidTransit,,https://www.mbta.com/stops/place-brico,level_median,0,place-brico,2,Boston,,,0
70135,70135,Packard's Corner - Green Line - (B) Boston College,Green,,Packard's Corner,,Boston College,42.351651,-71.12551,RapidTransit,,https://www.mbta.com/stops/place-brico,level_median,0,place-brico,2,Boston,,,0
70144,70144,Boston University Central - Green Line - Park Street & North,Green,,Boston University Central,,Park Street & North,42.350013,-71.106902,RapidTransit,,https://www.mbta.com/stops/place-bucen,level_median,0,place-bucen,1,Boston,,,0
70145,70145,Boston University Central - Green Line - (B) Boston College,Green,,Boston University Central,,Boston College,42.350148,-71.107455,RapidTransit,,https://www.mbta.com/stops/place-bucen,level_median,0,place-bucen,1,Boston,,,0
70146,70146,Boston University East - Green Line - Park Street & North,Green,,Boston University East,,Park Street & North,42.349659,-71.103989,RapidTransit,,https://www.mbta.com/stops/place-buest,level_median,0,place-buest,1,Boston,,,0
70147,70147,Boston University East - Green Line - (B) Boston College,Green,,Boston University East,,Boston College,42.349811,-71.104657,RapidTransit,,https://www.mbta.com/stops/place-buest,level_median,0,place-buest,1,Boston,,,0
70148,70148,Blandford Street - Green Line - Park Street & North,Green,,Blandford Street,,Park Street & North,42.349165,-71.099821,RapidTransit,,https://www.mbta.com/stops/place-bland,level_median,0,place-bland,2,Boston,,,0
70149,70149,Blandford Street - Green Line - (B) Boston College,Green,,Blandford Street,,Boston College,42.349276,-71.100213,RapidTransit,,https://www.mbta.com/stops/place-bland,level_median,0,place-bland,2,Boston,,,0
70150,70150,Kenmore - Green Line - Park Street & North,Green,,Kenmore,,Park Street & North,42.348949,-71.095169,RapidTransit,,https://www.mbta.com/stops/place-kencl,level_-2_platform,0,place-kencl,1,Boston,,,0
70151,70151,"Kenmore - Green Line - (C) Cleveland Circle, (D) Riverside",Green,,Kenmore,,"Cleveland Circle, Riverside",42.348949,-71.095169,RapidTransit,,https://www.mbta.com/stops/place-kencl,level_-2_platform,0,place-kencl,1,Boston,,,0
70152,70152,Hynes Convention Center - Green Line - Park Street & North,Green,,Hynes Convention Center,,Park Street & North,42.347888,-71.087903,RapidTransit,,https://www.mbta.com/stops/place-hymnl,level_-2_platform,0,place-hymnl,2,Boston,,,0
70153,70153,Hynes Convention Center - Green Line - Kenmore & West,Green,,Hynes Convention Center,,Kenmore & West,42.347888,-71.087903,RapidTransit,,https://www.mbta.com/stops/place-hymnl,level_-2_platform,0,place-hymnl,2,Boston,,,0
70154,70154,Copley - Green Line - Park Street & North,Green,,Copley,,Park Street & North,42.349871,-71.078049,RapidTransit,,https://www.mbta.com/stops/place-coecl,level_-1_platform,0,place-coecl,1,Boston,,,0
70155,70155,"Copley - Green Line - Kenmore & West, (E) Heath Street",Green,,Copley,,"Kenmore & West, Heath Street",42.350126,-71.077376,RapidTransit,,https://www.mbta.com/stops/place-coecl,level_-1_platform,0,place-coecl,1,Boston,,,0
70156,70156,Arlington - Green Line - Park Street & North,Green,,Arlington,,Park Street & North,42.351902,-71.070893,RapidTransit,,https://www.mbta.com/stops/place-armnl,level_-2_platform,0,place-armnl,1,Boston,,,0
70157,70157,Arlington - Green Line - Copley & West,Green,,Arlington,,Copley & West,42.351902,-71.070893,RapidTransit,,https://www.mbta.com/stops/place-armnl,level_-2_platform,0,place-armnl,1,Boston,,,0
70158,70158,Boylston - Green Line - Park Street & North,Green,,Boylston,,Park Street & North,42.352531,-71.064682,RapidTransit,,https://www.mbta.com/stops/place-boyls,level_-1_platform,0,place-boyls,2,Boston,,,0
70159,70159,Boylston - Green Line - Copley & West,Green,,Boylston,,Copley & West,42.353214,-71.064545,RapidTransit,,https://www.mbta.com/stops/place-boyls,level_-1_platform,0,place-boyls,2,Boston,,,0
70160,70160,Riverside - Green Line - Park Street & North,Green,,Riverside,,Park Street & North,42.337317,-71.252256,RapidTransit,,https://www.mbta.com/stops/place-river,level_1_platform,0,place-river,1,Newton,,,0
70161,70161,Riverside - Green Line - Park Street & North,Green,,Riverside,,Park Street & North,42.337348,-71.252236,RapidTransit,,https://www.mbta.com/stops/place-river,level_1_platform,0,place-river,1,Newton,,,0
70162,70162,Woodland - Green Line - Park Street & North,Green,,Woodland,,Park Street & North,42.332703,-71.243055,RapidTransit,,https://www.mbta.com/stops/place-woodl,level_ground,0,place-woodl,1,Newton,,,0
70163,70163,Woodland - Green Line - (D) Riverside,Green,,Woodland,,Riverside,42.333094,-71.243659,RapidTransit,,https://www.mbta.com/stops/place-woodl,level_ground,0,place-woodl,1,Newton,,,0
70164,70164,Waban - Green Line - Park Street & North,Green,,Waban,,Park Street & North,42.325695,-71.230476,RapidTransit,,https://www.mbta.com/stops/place-waban,level_ground,0,place-waban,2,Newton,,,0
70165,70165,Waban - Green Line - (D) Riverside,Green,,Waban,,Riverside,42.325967,-71.230714,RapidTransit,,https://www.mbta.com/stops/place-waban,level_ground,0,place-waban,2,Newton,,,0
70166,70166,Eliot - Green Line - Park Street & North,Green,,Eliot,,Park Street & North,42.318871,-71.21642,RapidTransit,,https://www.mbta.com/stops/place-eliot,level_ground,0,place-eliot,2,Newton,,,0
70167,70167,Eliot - Green Line - (D) Riverside,Green,,Eliot,,Riverside,42.319214,-71.216949,RapidTransit,,https://www.mbta.com/stops/place-eliot,level_ground,0,place-eliot,2,Newton,,,0
70168,70168,Newton Highlands - Green Line - Park Street & North,Green,,Newton Highlands,,Park Street & North,42.322738,-71.205082,RapidTransit,,https://www.mbta.com/stops/place-newtn,level_ground,0,place-newtn,1,Newton,,,0
70169,70169,Newton Highlands - Green Line - (D) Riverside,Green,,Newton Highlands,,Riverside,42.32253,-71.205421,RapidTransit,,https://www.mbta.com/stops/place-newtn,level_ground,0,place-newtn,1,Newton,,,0
70170,70170,Newton Centre - Green Line - Park Street & North,Green,,Newton Centre,,Park Street & North,42.329552,-71.192024,RapidTransit,,https://www.mbta.com/stops/place-newto,level_ground,0,place-newto,1,Newton,,,0
70171,70171,Newton Centre - Green Line - (D) Riverside,Green,,Newton Centre,,Riverside,42.3294,-71.192622,RapidTransit,,https://www.mbta.com/stops/place-newto,level_ground,0,place-newto,1,Newton,,,0
70172,70172,Chestnut Hill - Green Line - Park Street & North,Green,,Chestnut Hill,,Park Street & North,42.326799,-71.164146,RapidTransit,,https://www.mbta.com/stops/place-chhil,level_ground,0,place-chhil,2,Newton,,,0
70173,70173,Chestnut Hill - Green Line - (D) Riverside,Green,,Chestnut Hill,,Riverside,42.326782,-71.16478,RapidTransit,,https://www.mbta.com/stops/place-chhil,level_ground,0,place-chhil,2,Newton,,,0
70174,70174,Reservoir - Green Line - Park Street & North,Green,,Reservoir,,Park Street & North,42.335181,-71.147879,RapidTransit,,https://www.mbta.com/stops/place-rsmnl,level_-1_platform,0,place-rsmnl,1,Brookline,,,0
70175,70175,Reservoir - Green Line - (D) Riverside,Green,,Reservoir,,Riverside,42.335163,-71.148601,RapidTransit,,https://www.mbta.com/stops/place-rsmnl,level_-1_platform,0,place-rsmnl,1,Brookline,,,0
70176,70176,Beaconsfield - Green Line - Park Street & North,Green,,Beaconsfield,,Park Street & North,42.335625,-71.140112,RapidTransit,,https://www.mbta.com/stops/place-bcnfd,level_ground,0,place-bcnfd,2,Brookline,,,0
70177,70177,Beaconsfield - Green Line - (D) Riverside,Green,,Beaconsfield,,Riverside,42.335912,-71.140903,RapidTransit,,https://www.mbta.com/stops/place-bcnfd,level_ground,0,place-bcnfd,2,Brookline,,,0
70178,70178,Brookline Hills - Green Line - Park Street & North,Green,,Brookline Hills,,Park Street & North,42.331293,-71.126406,RapidTransit,,https://www.mbta.com/stops/place-brkhl,level_ground,0,place-brkhl,1,Brookline,,,0
70179,70179,Brookline Hills - Green Line - (D) Riverside,Green,,Brookline Hills,,Riverside,42.331413,-71.127025,RapidTransit,,https://www.mbta.com/stops/place-brkhl,level_ground,0,place-brkhl,1,Brookline,,,0
70180,70180,Brookline Village - Green Line - Park Street & North,Green,,Brookline Village,,Park Street & North,42.332614,-71.116751,RapidTransit,,https://www.mbta.com/stops/place-bvmnl,level_ground,0,place-bvmnl,1,Brookline,,,0
70181,70181,Brookline Village - Green Line - (D) Riverside,Green,,Brookline Village,,Riverside,42.33257,-71.117041,RapidTransit,,https://www.mbta.com/stops/place-bvmnl,level_ground,0,place-bvmnl,1,Brookline,,,0
70182,70182,Longwood - Green Line - Park Street & North,Green,,Longwood,,Park Street & North,42.341808,-71.109777,RapidTransit,,https://www.mbta.com/stops/place-longw,level_ground,0,place-longw,1,Brookline,,,0
70183,70183,Longwood - Green Line - (D) Riverside,Green,,Longwood,,Riverside,42.341571,-71.110147,RapidTransit,,https://www.mbta.com/stops/place-longw,level_ground,0,place-longw,1,Brookline,,,0
70186,70186,Fenway - Green Line - Park Street & North,Green,,Fenway,,Park Street & North,42.345328,-71.104269,RapidTransit,,https://www.mbta.com/stops/place-fenwy,level_ground,0,place-fenwy,1,Boston,,,0
70187,70187,Fenway - Green Line - (D) Riverside,Green,,Fenway,,Riverside,42.345029,-71.104968,RapidTransit,,https://www.mbta.com/stops/place-fenwy,level_ground,0,place-fenwy,1,Boston,,,0
70196,70196,Park Street - Green Line - (B) Boston College,Green,,Park Street,B,Boston College,42.356395,-71.062424,RapidTransit,,https://www.mbta.com/stops/place-pktrm,level_-1_green_platform,0,place-pktrm,1,Boston,,,0
70197,70197,Park Street - Green Line - (C) Cleveland Circle,Green,,Park Street,C,Cleveland Circle,42.356395,-71.062424,RapidTransit,,https://www.mbta.com/stops/place-pktrm,level_-1_green_platform,0,place-pktrm,1,Boston,,,0
70198,70198,Park Street - Green Line - (D) Riverside,Green,,Park Street,D,Riverside,42.356395,-71.062424,RapidTransit,,https://www.mbta.com/stops/place-pktrm,level_-1_green_platform,0,place-pktrm,1,Boston,,,0
70199,70199,Park Street - Green Line - (E) Heath Street,Green,,Park Street,E,Heath Street,42.356395,-71.062424,RapidTransit,,https://www.mbta.com/stops/place-pktrm,level_-1_green_platform,0,place-pktrm,1,Boston,,,0
70200,70200,Park Street - Green Line - Government Center & North,Green,,Park Street,,Government Center & North,42.356395,-71.062424,RapidTransit,,https://www.mbta.com/stops/place-pktrm,level_-1_green_platform,0,place-pktrm,1,Boston,,,0
70201,70201,Government Center - Green Line - North Station & North,Green,,Government Center,,North Station & North,42.359705,-71.059215,RapidTransit,,https://www.mbta.com/stops/place-gover,level_-1_green_platform,0,place-gover,1,Boston,,,0
70202,70202,Government Center - Green Line - Copley & West,Green,,Government Center,,Copley & West,42.359705,-71.059215,RapidTransit,,https://www.mbta.com/stops/place-gover,level_-1_green_platform,0,place-gover,1,Boston,,,0
70203,70203,Haymarket - Green Line - North Station & North,Green,,Haymarket,,North Station & North,42.363021,-71.05829,RapidTransit,,https://www.mbta.com/stops/place-haecl,level_-1_green_platform,0,place-haecl,1,Boston,,,0
70204,70204,Haymarket - Green Line - Copley & West,Green,,Haymarket,,Copley & West,42.363021,-71.05829,RapidTransit,,https://www.mbta.com/stops/place-haecl,level_-1_green_platform,0,place-haecl,1,Boston,,,0
70205,70205,North Station - Green Line - Lechmere & North,Green,,North Station,,Lechmere & North,42.365577,-71.06129,RapidTransit,,https://www.mbta.com/stops/place-north,level_-1_lechmere_platform,0,place-north,1,Boston,,,0
70206,70206,North Station - Green Line - Copley & West,Green,,North Station,,Copley & West,42.365577,-71.06129,RapidTransit,,https://www.mbta.com/stops/place-north,level_-2_low_platform,0,place-north,1,Boston,,,0
70207,70207,Science Park/West End - Green Line - Lechmere & North,Green,,Science Park/West End,,Lechmere & North,42.366664,-71.067666,RapidTransit,,https://www.mbta.com/stops/place-spmnl,level_2_platform,0,place-spmnl,1,Boston,,,0
70208,70208,Science Park/West End - Green Line - Copley & West,Green,,Science Park/West End,,Copley & West,42.366664,-71.067666,RapidTransit,,https://www.mbta.com/stops/place-spmnl,level_2_platform,0,place-spmnl,1,Boston,,,0
70211,70211,Saint Mary's Street - Green Line - (C) Cleveland Circle,Green,,Saint Mary's Street,,Cleveland Circle,42.345884,-71.107697,RapidTransit,,https://www.mbta.com/stops/place-smary,level_median,0,place-smary,1,Brookline,,,0
70212,70212,Saint Mary's Street - Green Line - Park Street & North,Green,,Saint Mary's Street,,Park Street & North,42.346007,-71.107166,RapidTransit,,https://www.mbta.com/stops/place-smary,level_median,0,place-smary,1,Brookline,,,0
70213,70213,Hawes Street - Green Line - (C) Cleveland Circle,Green,,Hawes Street,,Cleveland Circle,42.344758,-71.111761,RapidTransit,,https://www.mbta.com/stops/place-hwsst,level_median,0,place-hwsst,2,Brookline,,,0
70214,70214,Hawes Street - Green Line - Park Street & North,Green,,Hawes Street,,Park Street & North,42.344867,-71.111157,RapidTransit,,https://www.mbta.com/stops/place-hwsst,level_median,0,place-hwsst,2,Brookline,,,0
70215,70215,Kent Street - Green Line - (C) Cleveland Circle,Green,,Kent Street,,Cleveland Circle,42.344117,-71.114097,RapidTransit,,https://www.mbta.com/stops/place-kntst,level_median,0,place-kntst,2,Brookline,,,0
70216,70216,Kent Street - Green Line - Park Street & North,Green,,Kent Street,,Park Street & North,42.343927,-71.114569,RapidTransit,,https://www.mbta.com/stops/place-kntst,level_median,0,place-kntst,2,Brookline,,,0
70217,70217,Saint Paul Street - Green Line - (C) Cleveland Circle,Green,,Saint Paul Street,,Cleveland Circle,42.34334,-71.116927,RapidTransit,,https://www.mbta.com/stops/place-stpul,level_median,0,place-stpul,2,Brookline,,,0
70218,70218,Saint Paul Street - Green Line - Park Street & North,Green,,Saint Paul Street,,Park Street & North,42.343118,-71.117498,RapidTransit,,https://www.mbta.com/stops/place-stpul,level_median,0,place-stpul,2,Brookline,,,0
70219,70219,Coolidge Corner - Green Line - (C) Cleveland Circle,Green,,Coolidge Corner,,Cleveland Circle,42.342274,-71.120915,RapidTransit,,https://www.mbta.com/stops/place-cool,level_median,0,place-cool,1,Brookline,,,0
70220,70220,Coolidge Corner - Green Line - Park Street & North,Green,,Coolidge Corner,,Park Street & North,42.342028,-71.121685,RapidTransit,,https://www.mbta.com/stops/place-cool,level_median,0,place-cool,1,Brookline,,,0
70223,70223,Summit Avenue - Green Line - (C) Cleveland Circle,Green,,Summit Avenue,,Cleveland Circle,42.34112,-71.125652,RapidTransit,,https://www.mbta.com/stops/place-sumav,level_median,0,place-sumav,2,Brookline,,,0
70224,70224,Summit Avenue - Green Line - Park Street & North,Green,,Summit Avenue,,Park Street & North,42.341027,-71.125759,RapidTransit,,https://www.mbta.com/stops/place-sumav,level_median,0,place-sumav,2,Brookline,,,0
70225,70225,Brandon Hall - Green Line - (C) Cleveland Circle,Green,,Brandon Hall,,Cleveland Circle,42.340053,-71.128869,RapidTransit,,https://www.mbta.com/stops/place-bndhl,level_median,0,place-bndhl,2,Brookline,,,0
70226,70226,Brandon Hall - Green Line - Park Street & North,Green,,Brandon Hall,,Park Street & North,42.340038,-71.12866,RapidTransit,,https://www.mbta.com/stops/place-bndhl,level_median,0,place-bndhl,2,Brookline,,,0
70227,70227,Fairbanks Street - Green Line - (C) Cleveland Circle,Green,,Fairbanks Street,,Cleveland Circle,42.33969,-71.131228,RapidTransit,,https://www.mbta.com/stops/place-fbkst,level_median,0,place-fbkst,2,Brookline,,,0
70228,70228,Fairbanks Street - Green Line - Park Street & North,Green,,Fairbanks Street,,Park Street & North,42.339644,-71.131078,RapidTransit,,https://www.mbta.com/stops/place-fbkst,level_median,0,place-fbkst,2,Brookline,,,0
70229,70229,Washington Square - Green Line - (C) Cleveland Circle,Green,,Washington Square,,Cleveland Circle,42.339471,-71.135139,RapidTransit,,https://www.mbta.com/stops/place-bcnwa,level_median,0,place-bcnwa,1,Brookline,,,0
70230,70230,Washington Square - Green Line - Park Street & North,Green,,Washington Square,,Park Street & North,42.339519,-71.134587,RapidTransit,,https://www.mbta.com/stops/place-bcnwa,level_median,0,place-bcnwa,1,Brookline,,,0
70231,70231,Tappan Street - Green Line - (C) Cleveland Circle,Green,,Tappan Street,,Cleveland Circle,42.338498,-71.138731,RapidTransit,,https://www.mbta.com/stops/place-tapst,level_median,0,place-tapst,2,Brookline,,,0
70232,70232,Tappan Street - Green Line - Park Street & North,Green,,Tappan Street,,Park Street & North,42.338567,-71.13819,RapidTransit,,https://www.mbta.com/stops/place-tapst,level_median,0,place-tapst,2,Brookline,,,0
70233,70233,Dean Road - Green Line - (C) Cleveland Circle,Green,,Dean Road,,Cleveland Circle,42.337807,-71.141753,RapidTransit,,https://www.mbta.com/stops/place-denrd,level_median,0,place-denrd,2,Brookline,,,0
70234,70234,Dean Road - Green Line - Park Street & North,Green,,Dean Road,,Park Street & North,42.337628,-71.142309,RapidTransit,,https://www.mbta.com/stops/place-denrd,level_median,0,place-denrd,2,Brookline,,,0
70235,70235,Englewood Avenue - Green Line - (C) Cleveland Circle,Green,,Englewood Avenue,,Cleveland Circle,42.336964,-71.145867,RapidTransit,,https://www.mbta.com/stops/place-engav,level_median,0,place-engav,2,Brookline,,,0
70236,70236,Englewood Avenue - Green Line - Park Street & North,Green,,Englewood Avenue,,Park Street & North,42.337011,-71.145368,RapidTransit,,https://www.mbta.com/stops/place-engav,level_median,0,place-engav,2,Brookline,,,0
70237,70237,Cleveland Circle - Green Line - Exit Only,Green,,Cleveland Circle,,Exit Only,42.336216,-71.149201,RapidTransit,,https://www.mbta.com/stops/place-clmnl,level_median,0,place-clmnl,1,Boston,,,0
70238,70238,Cleveland Circle - Green Line - Park Street & North,Green,,Cleveland Circle,,Park Street & North,42.336252,-71.148774,RapidTransit,,https://www.mbta.com/stops/place-clmnl,level_median,0,place-clmnl,1,Boston,,,0
70239,70239,Prudential - Green Line - (E) Heath Street,Green,,Prudential,,Heath Street,42.34557,-71.081696,RapidTransit,,https://www.mbta.com/stops/place-prmnl,level_-2_platform,0,place-prmnl,1,Boston,,,0
70240,70240,Prudential - Green Line - Park Street & North,Green,,Prudential,,Park Street & North,42.34557,-71.081696,RapidTransit,,https://www.mbta.com/stops/place-prmnl,level_-2_platform,0,place-prmnl,1,Boston,,,0
70241,70241,Symphony - Green Line - (E) Heath Street,Green,,Symphony,,Heath Street,42.342687,-71.085056,RapidTransit,,https://www.mbta.com/stops/place-symcl,level_-1_platform,0,place-symcl,2,Boston,,,0
70242,70242,Symphony - Green Line - Park Street & North,Green,,Symphony,,Park Street & North,42.342687,-71.085056,RapidTransit,,https://www.mbta.com/stops/place-symcl,level_-1_platform,0,place-symcl,2,Boston,,,0
70243,70243,Northeastern University - Green Line - (E) Heath Street,Green,,Northeastern University,,Heath Street,42.339897,-71.09021,RapidTransit,,https://www.mbta.com/stops/place-nuniv,level_median,0,place-nuniv,1,Boston,,,0
70244,70244,Northeastern University - Green Line - Park Street & North,Green,,Northeastern University,,Park Street & North,42.340222,-71.0892,RapidTransit,,https://www.mbta.com/stops/place-nuniv,level_median,0,place-nuniv,1,Boston,,,0
70245,70245,Museum of Fine Arts - Green Line - (E) Heath Street,Green,,Museum of Fine Arts,,Heath Street,42.337875,-71.09524,RapidTransit,,https://www.mbta.com/stops/place-mfa,level_median,0,place-mfa,1,Boston,,,0
70246,70246,Museum of Fine Arts - Green Line - Park Street & North,Green,,Museum of Fine Arts,,Park Street & North,42.338017,-71.094682,RapidTransit,,https://www.mbta.com/stops/place-mfa,level_median,0,place-mfa,1,Boston,,,0
70247,70247,Longwood Medical Area - Green Line - (E) Heath Street,Green,,Longwood Medical Area,,Heath Street,42.33608,-71.099883,RapidTransit,,https://www.mbta.com/stops/place-lngmd,level_median,0,place-lngmd,1,Boston,,,0
70248,70248,Longwood Medical Area - Green Line - Park Street & North,Green,,Longwood Medical Area,,Park Street & North,42.336217,-71.099328,RapidTransit,,https://www.mbta.com/stops/place-lngmd,level_median,0,place-lngmd,1,Boston,,,0
70249,70249,Brigham Circle - Green Line - (E) Heath Street,Green,,Brigham Circle,,Heath Street,42.334331,-71.104487,RapidTransit,,https://www.mbta.com/stops/place-brmnl,level_median,0,place-brmnl,1,Boston,,,0
70250,70250,Brigham Circle - Green Line - Park Street & North,Green,,Brigham Circle,,Park Street & North,42.334846,-71.103017,RapidTransit,,https://www.mbta.com/stops/place-brmnl,level_median,0,place-brmnl,1,Boston,,,0
70251,70251,Fenwood Road - Green Line - (E) Heath Street,Green,,Fenwood Road,,Heath Street,42.33374,-71.105721,RapidTransit,,https://www.mbta.com/stops/place-fenwd,level_in_street,0,place-fenwd,2,Boston,,,0
70252,70252,Fenwood Road - Green Line - Park Street & North,Green,,Fenwood Road,,Park Street & North,42.333706,-71.105583,RapidTransit,,https://www.mbta.com/stops/place-fenwd,level_in_street,0,place-fenwd,2,Boston,,,0
70253,70253,Mission Park - Green Line - (E) Heath Street,Green,,Mission Park,,Heath Street,42.333279,-71.109276,RapidTransit,,https://www.mbta.com/stops/place-mispk,level_in_street,0,place-mispk,2,Boston,,,0
70254,70254,Mission Park - Green Line - Park Street & North,Green,,Mission Park,,Park Street & North,42.333092,-71.10968,RapidTransit,,https://www.mbta.com/stops/place-mispk,level_in_street,0,place-mispk,2,Boston,,,0
70255,70255,Riverway - Green Line - (E) Heath Street,Green,,Riverway,,Heath Street,42.331391,-71.111925,RapidTransit,,https://www.mbta.com/stops/place-rvrwy,level_in_street,0,place-rvrwy,2,Boston,,,0
70256,70256,Riverway - Green Line - Park Street & North,Green,,Riverway,,Park Street & North,42.331871,-71.111961,RapidTransit,,https://www.mbta.com/stops/place-rvrwy,level_in_street,0,place-rvrwy,2,Boston,,,0
70257,70257,Back of the Hill - Green Line - (E) Heath Street,Green,,Back of the Hill,,Heath Street,42.329369,-71.111046,RapidTransit,,https://www.mbta.com/stops/place-bckhl,level_in_street,0,place-bckhl,2,Boston,,,0
70258,70258,Back of the Hill - Green Line - Park Street & North,Green,,Back of the Hill,,Park Street & North,42.329399,-71.110931,RapidTransit,,https://www.mbta.com/stops/place-bckhl,level_in_street,0,place-bckhl,2,Boston,,,0
70260,70260,Heath Street - Green Line,Green,,Heath Street,,Green Line,42.328316,-71.110252,RapidTransit,,https://www.mbta.com/stops/place-hsmnl,level_ground,0,place-hsmnl,1,Boston,,,0
70501,70501,"Lechmere - Green Line - (D) Union Square, (E) Medford/Tufts",Green,,Lechmere,,"Union Square, Medford/Tufts",42.371566,-71.076457,RapidTransit,,https://www.mbta.com/stops/place-lech,level_1_platform,0,place-lech,1,Cambridge,,,0
70502,70502,Lechmere - Green Line - Copley & West,Green,,Lechmere,,Copley & West,42.370989,-71.07586,RapidTransit,,https://www.mbta.com/stops/place-lech,level_1_platform,0,place-lech,1,Cambridge,,,0
70503,70503,Union Square - Green Line - Copley & West,Green,,Union Square,,Copley & West,42.377024,-71.093964,RapidTransit,,https://www.mbta.com/stops/place-unsqu,level_ground,0,place-unsqu,1,Somerville,,,0
70504,70504,Union Square - Green Line - Copley & West,Green,,Union Square,,Copley & West,42.37699,-71.093993,RapidTransit,,https://www.mbta.com/stops/place-unsqu,level_ground,0,place-unsqu,1,Somerville,,,0
71150,71150,Kenmore - Green Line - Park Street & North,Green,,Kenmore,,Park Street & North,42.348949,-71.095169,RapidTransit,,https://www.mbta.com/stops/place-kencl,level_-2_platform,0,place-kencl,1,Boston,,,0
71151,71151,Kenmore - Green Line - (B) Boston College,Green,,Kenmore,,Boston College,42.348949,-71.095169,RapidTransit,,https://www.mbta.com/stops/place-kencl,level_-2_platform,0,place-kencl,1,Boston,,,0
170136,170136,Babcock Street - Green Line - Park Street & North,Green,,Babcock Street,,Park Street & North,42.351538,-71.119553,RapidTransit,,https://www.mbta.com/stops/place-babck,level_median,0,place-babck,1,Boston,,,0
170137,170137,Babcock Street - Green Line - (B) Boston College,Green,,Babcock Street,,Boston College,42.351695,-71.120257,RapidTransit,,https://www.mbta.com/stops/place-babck,level_median,0,place-babck,1,Boston,,,0
170140,170140,Amory Street - Green Line - Park Street & North,Green,,Amory Street,,Park Street & North,42.350901,-71.114318,RapidTransit,,https://www.mbta.com/stops/place-amory,level_median,0,place-amory,1,Boston,,,0
170141,170141,Amory Street - Green Line - (B) Boston College,Green,,Amory Street,,Boston College,42.351066,-71.115027,RapidTransit,,https://www.mbta.com/stops/place-amory,level_median,0,place-amory,1,Boston,,,0
71199,,Park Street - Green Line - Drop-off Only,Green,,Park Street,,Drop-off Only,42.356395,-71.062424,RapidTransit,,https://www.mbta.com/stops/place-pktrm,level_-1_green_platform,0,place-pktrm,1,Boston,,,0
Government Center-Brattle,,Government Center - Green Line - Loop Platform,Green,,Government Center,,Loop Platform,42.359705,-71.059215,RapidTransit,,https://www.mbta.com/stops/place-gover,level_-1_green_platform,0,place-gover,1,Boston,,,0
70261,70261,Ashmont - Mattapan Trolley,Mattapan,0,Ashmont,,Mattapan Trolley,42.283768,-71.063191,RapidTransit,,https://www.mbta.com/stops/place-asmnl,level_ground,0,place-asmnl,1,Boston,,,0
70263,70263,Cedar Grove - Mattapan Trolley - Mattapan,Mattapan,1,Cedar Grove,,Mattapan,42.279546,-71.060392,RapidTransit,,https://www.mbta.com/stops/place-cedgr,level_ground,0,place-cedgr,1,Boston,,,0
70264,70264,Cedar Grove - Mattapan Trolley - Ashmont,Mattapan,7,Cedar Grove,,Ashmont,42.279693,-71.060381,RapidTransit,,https://www.mbta.com/stops/place-cedgr,level_ground,0,place-cedgr,1,Boston,,,0
70265,70265,Butler - Mattapan Trolley - Mattapan,Mattapan,2,Butler,,Mattapan,42.272449,-71.062513,RapidTransit,,https://www.mbta.com/stops/place-butlr,level_ground,0,place-butlr,1,Boston,,,0
70266,70266,Butler - Mattapan Trolley - Ashmont,Mattapan,6,Butler,,Ashmont,42.272477,-71.062438,RapidTransit,,https://www.mbta.com/stops/place-butlr,level_ground,0,place-butlr,1,Boston,,,0
70267,70267,Milton - Mattapan Trolley - Mattapan,Mattapan,3,Milton,,Mattapan,42.270388,-71.067253,RapidTransit,,https://www.mbta.com/stops/place-miltt,level_ground,0,place-miltt,1,Milton,,,0
70268,70268,Milton - Mattapan Trolley - Ashmont,Mattapan,5,Milton,,Ashmont,42.270308,-71.067289,RapidTransit,,https://www.mbta.com/stops/place-miltt,level_ground,0,place-miltt,1,Milton,,,0
70269,70269,Central Avenue - Mattapan Trolley - Mattapan,Mattapan,4,Central Avenue,,Mattapan,42.270054,-71.073523,RapidTransit,,https://www.mbta.com/stops/place-cenav,level_ground,0,place-cenav,1,Milton,,,0
70270,70270,Central Avenue - Mattapan Trolley - Ashmont,Mattapan,4,Central Avenue,,Ashmont,42.270001,-71.073358,RapidTransit,,https://www.mbta.com/stops/place-cenav,level_ground,0,place-cenav,1,Milton,,,0
70271,70271,Valley Road - Mattapan Trolley - Mattapan,Mattapan,5,Valley Road,,Mattapan,42.268389,-71.081504,RapidTransit,,https://www.mbta.com/stops/place-valrd,level_ground,0,place-valrd,2,Milton,,,0
70272,70272,Valley Road - Mattapan Trolley - Ashmont,Mattapan,3,Valley Road,,Ashmont,42.268347,-71.081343,RapidTransit,,https://www.mbta.com/stops/place-valrd,level_ground,0,place-valrd,2,Milton,,,0
70273,70273,Capen Street - Mattapan Trolley - Mattapan,Mattapan,6,Capen Street,,Mattapan,42.267589,-71.087139,RapidTransit,,https://www.mbta.com/stops/place-capst,level_ground,0,place-capst,1,Milton,,,0
70274,70274,Capen Street - Mattapan Trolley - Ashmont,Mattapan,2,Capen Street,,Ashmont,42.267563,-71.087338,RapidTransit,,https://www.mbta.com/stops/place-capst,level_ground,0,place-capst,1,Milton,,,0
70275,70275,Mattapan - Mattapan Trolley - Exit Only,Mattapan,7,Mattapan,,Exit Only,42.267625,-71.092389,RapidTransit,,https://www.mbta.com/stops/place-matt,level_ground,0,place-matt,1,Boston,,,0
70276,70276,Mattapan - Mattapan Trolley - Ashmont,Mattapan,1,Mattapan,,Ashmont,42.267559,-71.092233,RapidTransit,,https://www.mbta.com/stops/place-matt,level_ground,0,place-matt,1,Boston,,,0
70001,70001,Forest Hills - Orange Line,Orange,20,Forest Hills,,Orange Line,42.300523,-71.113686,RapidTransit,,https://www.mbta.com/stops/place-forhl,level_-1_orange_platform,0,place-forhl,1,Boston,,,1
70002,70002,Green Street - Orange Line - Forest Hills,Orange,2,Green Street,,Forest Hills,42.309832,-71.108059,RapidTransit,,https://www.mbta.com/stops/place-grnst,level_-1_platform,0,place-grnst,1,Boston,,,1
70003,70003,Green Street - Orange Line - Oak Grove,Orange,19,Green Street,,Oak Grove,42.309796,-71.107988,RapidTransit,,https://www.mbta.com/stops/place-grnst,level_-1_platform,0,place-grnst,1,Boston,,,1
70004,70004,Stony Brook - Orange Line - Forest Hills,Orange,3,Stony Brook,,Forest Hills,42.317062,-71.104248,RapidTransit,,https://www.mbta.com/stops/place-sbmnl,level_-1_platform,0,place-sbmnl,1,Boston,,,1
70005,70005,Stony Brook - Orange Line - Oak Grove,Orange,18,Stony Brook,,Oak Grove,42.317062,-71.104248,RapidTransit,,https://www.mbta.com/stops/place-sbmnl,level_-1_platform,0,place-sbmnl,1,Boston,,,1
70006,70006,Jackson Square - Orange Line - Forest Hills,Orange,4,Jackson Square,,Forest Hills,42.323132,-71.099592,RapidTransit,,https://www.mbta.com/stops/place-jaksn,level_-1_platform,0,place-jaksn,1,Boston,,,1
70007,70007,Jackson Square - Orange Line - Oak Grove,Orange,17,Jackson Square,,Oak Grove,42.323132,-71.099592,RapidTransit,,https://www.mbta.com/stops/place-jaksn,level_-1_platform,0,place-jaksn,1,Boston,,,1
70008,70008,Roxbury Crossing - Orange Line - Forest Hills,Orange,5,Roxbury Crossing,,Forest Hills,42.330671,-71.096121,RapidTransit,,https://www.mbta.com/stops/place-rcmnl,level_-1_platform,0,place-rcmnl,1,Boston,,,1
70009,70009,Roxbury Crossing - Orange Line - Oak Grove,Orange,16,Roxbury Crossing,,Oak Grove,42.33064,-71.09604,RapidTransit,,https://www.mbta.com/stops/place-rcmnl,level_-1_platform,0,place-rcmnl,1,Boston,,,1
70010,70010,Ruggles - Orange Line - Forest Hills,Orange,6,Ruggles,,Forest Hills,42.33649,-71.089684,RapidTransit,,https://www.mbta.com/stops/place-rugg,level_0_orange_platform,0,place-rugg,1,Boston,,,1
70011,70011,Ruggles - Orange Line - Oak Grove,Orange,15,Ruggles,,Oak Grove,42.336451,-71.089635,RapidTransit,,https://www.mbta.com/stops/place-rugg,level_0_orange_platform,0,place-rugg,1,Boston,,,1
70012,70012,Massachusetts Avenue - Orange Line - Forest Hills,Orange,7,Massachusetts Avenue,,Forest Hills,42.340927,-71.084188,RapidTransit,,https://www.mbta.com/stops/place-masta,level_-1_platform,0,place-masta,1,Boston,,,1
70013,70013,Massachusetts Avenue - Orange Line - Oak Grove,Orange,14,Massachusetts Avenue,,Oak Grove,42.340892,-71.084124,RapidTransit,,https://www.mbta.com/stops/place-masta,level_-1_platform,0,place-masta,1,Boston,,,1
70014,70014,Back Bay - Orange Line - Forest Hills,Orange,8,Back Bay,,Forest Hills,42.34735,-71.075727,RapidTransit,,https://www.mbta.com/stops/place-bbsta,level_-1_orange_platform,0,place-bbsta,1,Boston,,,1
70015,70015,Back Bay - Orange Line - Oak Grove,Orange,13,Back Bay,,Oak Grove,42.34735,-71.075727,RapidTransit,,https://www.mbta.com/stops/place-bbsta,level_-1_orange_platform,0,place-bbsta,1,Boston,,,1
70016,70016,Tufts Medical Center - Orange Line - Forest Hills,Orange,9,Tufts Medical Center,,Forest Hills,42.349662,-71.063917,RapidTransit,,https://www.mbta.com/stops/place-tumnl,level_-2_platform,0,place-tumnl,1,Boston,,,1
70017,70017,Tufts Medical Center - Orange Line - Oak Grove,Orange,12,Tufts Medical Center,,Oak Grove,42.349662,-71.063917,RapidTransit,,https://www.mbta.com/stops/place-tumnl,level_-2_platform,0,place-tumnl,1,Boston,,,1
70018,70018,Chinatown - Orange Line - Forest Hills,Orange,10,Chinatown,,Forest Hills,42.352547,-71.062752,RapidTransit,,https://www.mbta.com/stops/place-chncl,level_-1_platform,0,place-chncl,1,Boston,,,1
70019,70019,Chinatown - Orange Line - Oak Grove,Orange,11,Chinatown,,Oak Grove,42.352547,-71.062752,RapidTransit,,https://www.mbta.com/stops/place-chncl,level_-1_platform,0,place-chncl,1,Boston,,,1
70020,70020,Downtown Crossing - Orange Line - Forest Hills,Orange,11,Downtown Crossing,,Forest Hills,42.355518,-71.060225,RapidTransit,,https://www.mbta.com/stops/place-dwnxg,level_-1_orange_platform,0,place-dwnxg,1,Boston,,,1
70021,70021,Downtown Crossing - Orange Line - Oak Grove,Orange,10,Downtown Crossing,,Oak Grove,42.355518,-71.060225,RapidTransit,,https://www.mbta.com/stops/place-dwnxg,level_-1_orange_platform,0,place-dwnxg,1,Boston,,,1
70022,70022,State - Orange Line - Forest Hills,Orange,12,State,,Forest Hills,42.358978,-71.057598,RapidTransit,,https://www.mbta.com/stops/place-state,level_-1_up_platform,0,place-state,1,Boston,,,1
70023,70023,State - Orange Line - Oak Grove,Orange,9,State,,Oak Grove,42.358978,-71.057598,RapidTransit,,https://www.mbta.com/stops/place-state,level_-2_oak_grove_platform,0,place-state,1,Boston,,,1
70024,70024,Haymarket - Orange Line - Forest Hills,Orange,13,Haymarket,,Forest Hills,42.363021,-71.05829,RapidTransit,,https://www.mbta.com/stops/place-haecl,level_-1_orange_platform,0,place-haecl,1,Boston,,,1
70025,70025,Haymarket - Orange Line - Oak Grove,Orange,8,Haymarket,,Oak Grove,42.363021,-71.05829,RapidTransit,,https://www.mbta.com/stops/place-haecl,level_-1_orange_platform,0,place-haecl,1,Boston,,,1
70026,70026,North Station - Orange Line - Forest Hills,Orange,14,North Station,,Forest Hills,42.365577,-71.06129,RapidTransit,,https://www.mbta.com/stops/place-north,level_-2_low_platform,0,place-north,1,Boston,,,1
70027,70027,North Station - Orange Line - Oak Grove,Orange,7,North Station,,Oak Grove,42.365577,-71.06129,RapidTransit,,https://www.mbta.com/stops/place-north,level_-2_low_platform,0,place-north,1,Boston,,,1
70028,70028,Community College - Orange Line - Forest Hills,Orange,15,Community College,,Forest Hills,42.373622,-71.069533,RapidTransit,,https://www.mbta.com/stops/place-ccmnl,level_-1_platform,0,place-ccmnl,1,Boston,,,1
70029,70029,Community College - Orange Line - Oak Grove,Orange,6,Community College,,Oak Grove,42.373622,-71.069533,RapidTransit,,https://www.mbta.com/stops/place-ccmnl,level_-1_platform,0,place-ccmnl,1,Boston,,,1
70030,70030,Sullivan Square - Orange Line - Forest Hills,Orange,16,Sullivan Square,1,Forest Hills,42.383975,-71.076994,RapidTransit,,https://www.mbta.com/stops/place-sull,level_-1_platform,0,place-sull,1,Boston,,,1
70031,70031,Sullivan Square - Orange Line - Oak Grove,Orange,5,Sullivan Square,2,Oak Grove,42.383975,-71.076994,RapidTransit,,https://www.mbta.com/stops/place-sull,level_-1_platform,0,place-sull,1,Boston,,,1
70032,70032,Wellington - Orange Line - Forest Hills,Orange,18,Wellington,1,Forest Hills,42.401505,-71.077252,RapidTransit,,https://www.mbta.com/stops/place-welln,level_-0.5_platform,0,place-welln,1,Medford,,,1
70033,70033,Wellington - Orange Line - Oak Grove,Orange,3,Wellington,2,Oak Grove,42.401507,-71.07715,RapidTransit,,https://www.mbta.com/stops/place-welln,level_-0.5_platform,0,place-welln,1,Medford,,,1
70034,70034,Malden Center - Orange Line - Forest Hills,Orange,19,Malden Center,,Forest Hills,42.426677,-71.074381,RapidTransit,,https://www.mbta.com/stops/place-mlmnl,level_1_orange_platform,0,place-mlmnl,1,Malden,,,1
70035,70035,Malden Center - Orange Line - Oak Grove,Orange,2,Malden Center,,Oak Grove,42.426662,-71.074314,RapidTransit,,https://www.mbta.com/stops/place-mlmnl,level_1_orange_platform,0,place-mlmnl,1,Malden,,,1
70036,70036,Oak Grove - Orange Line,Orange,20,Oak Grove,,Orange Line,42.437735,-71.070875,RapidTransit,,https://www.mbta.com/stops/place-ogmnl,level_0_platform,0,place-ogmnl,1,Malden,,,1
70278,70278,Assembly - Orange Line - Forest Hills,Orange,17,Assembly,,Forest Hills,42.392331,-71.077262,RapidTransit,,https://www.mbta.com/stops/place-astao,level_0_platform,0,place-astao,1,Somerville,,,1
70279,70279,Assembly - Orange Line - Oak Grove,Orange,4,Assembly,,Oak Grove,42.392336,-71.07718,RapidTransit,,https://www.mbta.com/stops/place-astao,level_0_platform,0,place-astao,1,Somerville,,,1
Forest Hills-01,,Forest Hills - Orange Line - Track 1,Orange,1,Forest Hills,1,Track 1,42.300635,-71.114009,RapidTransit,,https://www.mbta.com/stops/place-forhl,level_-1_orange_platform,0,place-forhl,1,Boston,,,1
Forest Hills-02,,Forest Hills - Orange Line - Track 2,Orange,21,Forest Hills,2,Track 2,42.300635,-71.114009,RapidTransit,,https://www.mbta.com/stops/place-forhl,level_-1_orange_platform,0,place-forhl,1,Boston,,,1
Oak Grove-01,,Oak Grove - Orange Line - Track 1,Orange,21,Oak Grove,1,Track 1,42.437735,-71.070837,RapidTransit,,https://www.mbta.com/stops/place-ogmnl,level_0_platform,0,place-ogmnl,1,Malden,,,1
Oak Grove-02,,Oak Grove - Orange Line - Track 2,Orange,1,Oak Grove,2,Track 2,42.437727,-71.070905,RapidTransit,,https://www.mbta.com/stops/place-ogmnl,level_0_platform,0,place-ogmnl,1,Malden,,,1
70061,70061,Alewife - Red Line,Red,22,Alewife,,Red Line,42.395428,-71.142483,RapidTransit,,https://www.mbta.com/stops/place-alfcl,level_-2_platform,0,place-alfcl,1,Cambridge,,,1
70063,70063,Davis - Red Line - Ashmont/Braintree,Red,2,Davis,,Ashmont/Braintree,42.39674,-71.121815,RapidTransit,,https://www.mbta.com/stops/place-davis,level_-2_platform,0,place-davis,1,Somerville,,,1
70064,70064,Davis - Red Line - Alewife,Red,21,Davis,,Alewife,42.39674,-71.121815,RapidTransit,,https://www.mbta.com/stops/place-davis,level_-2_platform,0,place-davis,1,Somerville,,,1
70065,70065,Porter - Red Line - Ashmont/Braintree,Red,3,Porter,,Ashmont/Braintree,42.3884,-71.119149,RapidTransit,,https://www.mbta.com/stops/place-portr,level_-3_southbound_platform,0,place-portr,1,Cambridge,,,1
70066,70066,Porter - Red Line - Alewife,Red,20,Porter,,Alewife,42.3884,-71.119149,RapidTransit,,https://www.mbta.com/stops/place-portr,level_-4_alewife_platform,0,place-portr,1,Cambridge,,,1
70067,70067,Harvard - Red Line - Ashmont/Braintree,Red,4,Harvard,,Ashmont/Braintree,42.373362,-71.118956,RapidTransit,,https://www.mbta.com/stops/place-harsq,level_-2_southbound_platform,0,place-harsq,1,Cambridge,,,1
70068,70068,Harvard - Red Line - Alewife,Red,19,Harvard,,Alewife,42.373362,-71.118956,RapidTransit,,https://www.mbta.com/stops/place-harsq,level_-1_alewife_platform,0,place-harsq,1,Cambridge,,,1
70069,70069,Central - Red Line - Ashmont/Braintree,Red,5,Central,,Ashmont/Braintree,42.365304,-71.103621,RapidTransit,,https://www.mbta.com/stops/place-cntsq,level_-1_platform,0,place-cntsq,1,Cambridge,,,1
70070,70070,Central - Red Line - Alewife,Red,18,Central,,Alewife,42.365379,-71.103554,RapidTransit,,https://www.mbta.com/stops/place-cntsq,level_-1_platform,0,place-cntsq,1,Cambridge,,,1
70071,70071,Kendall/MIT - Red Line - Ashmont/Braintree,Red,6,Kendall/MIT,,Ashmont/Braintree,42.362355,-71.085605,RapidTransit,,https://www.mbta.com/stops/place-knncl,level_-1_platform,0,place-knncl,1,Cambridge,,,1
70072,70072,Kendall/MIT - Red Line - Alewife,Red,17,Kendall/MIT,,Alewife,42.362434,-71.085591,RapidTransit,,https://www.mbta.com/stops/place-knncl,level_-1_platform,0,place-knncl,1,Cambridge,,,1
70073,70073,Charles/MGH - Red Line - Ashmont/Braintree,Red,7,Charles/MGH,,Ashmont/Braintree,42.361187,-71.071505,RapidTransit,,https://www.mbta.com/stops/place-chmnl,level_1_platform,0,place-chmnl,1,Boston,,,1
70074,70074,Charles/MGH - Red Line - Alewife,Red,16,Charles/MGH,,Alewife,42.361263,-71.071602,RapidTransit,,https://www.mbta.com/stops/place-chmnl,level_1_platform,0,place-chmnl,1,Boston,,,1
70075,70075,Park Street - Red Line - Ashmont/Braintree,Red,8,Park Street,,Ashmont/Braintree,42.356395,-71.062424,RapidTransit,,https://www.mbta.com/stops/place-pktrm,level_-2_red_platform,0,place-pktrm,1,Boston,,,1
70076,70076,Park Street - Red Line - Alewife,Red,15,Park Street,,Alewife,42.356395,-71.062424,RapidTransit,,https://www.mbta.com/stops/place-pktrm,level_-2_red_platform,0,place-pktrm,1,Boston,,,1
70077,70077,Downtown Crossing - Red Line - Ashmont/Braintree,Red,9,Downtown Crossing,,Ashmont/Braintree,42.355518,-71.060225,RapidTransit,,https://www.mbta.com/stops/place-dwnxg,level_-2_red_platform,0,place-dwnxg,1,Boston,,,1
70078,70078,Downtown Crossing - Red Line - Alewife,Red,14,Downtown Crossing,,Alewife,42.355518,-71.060225,RapidTransit,,https://www.mbta.com/stops/place-dwnxg,level_-2_red_platform,0,place-dwnxg,1,Boston,,,1
70079,70079,South Station - Red Line - Ashmont/Braintree,Red,10,South Station,,Ashmont/Braintree,42.352271,-71.055242,RapidTransit,,https://www.mbta.com/stops/place-sstat,level_-3_red_platform,0,place-sstat,1,Boston,,,1
70080,70080,South Station - Red Line - Alewife,Red,13,South Station,,Alewife,42.352271,-71.055242,RapidTransit,,https://www.mbta.com/stops/place-sstat,level_-3_red_platform,0,place-sstat,1,Boston,,,1
70081,70081,Broadway - Red Line - Ashmont/Braintree,Red,11,Broadway,,Ashmont/Braintree,42.342622,-71.056967,RapidTransit,,https://www.mbta.com/stops/place-brdwy,level_-2_platform,0,place-brdwy,1,Boston,,,1
70082,70082,Broadway - Red Line - Alewife,Red,12,Broadway,,Alewife,42.342622,-71.056967,RapidTransit,,https://www.mbta.com/stops/place-brdwy,level_-2_platform,0,place-brdwy,1,Boston,,,1
70083,70083,Andrew - Red Line - Ashmont/Braintree,Red,12,Andrew,1,Ashmont/Braintree,42.330154,-71.057655,RapidTransit,,https://www.mbta.com/stops/place-andrw,level_-2_platform,0,place-andrw,1,Boston,,,1
70084,70084,Andrew - Red Line - Alewife,Red,11,Andrew,2,Alewife,42.330154,-71.057655,RapidTransit,,https://www.mbta.com/stops/place-andrw,level_-2_platform,0,place-andrw,1,Boston,,,1
70085,70085,JFK/UMass - Red Line - Ashmont,Red,13,JFK/UMass,,Ashmont,42.320632,-71.052514,RapidTransit,,https://www.mbta.com/stops/place-jfk,level_0_red_platform,0,place-jfk,1,Boston,,,1
70086,70086,JFK/UMass - Red Line - Alewife (from Ashmont),Red,10,JFK/UMass,,Alewife (from Ashmont),42.320637,-71.052473,RapidTransit,,https://www.mbta.com/stops/place-jfk,level_0_red_platform,0,place-jfk,1,Boston,,,1
70087,70087,Savin Hill - Red Line - Ashmont,Red,14,Savin Hill,,Ashmont,42.310603,-71.053678,RapidTransit,,https://www.mbta.com/stops/place-shmnl,level_0_platform,0,place-shmnl,1,Boston,,,1
70088,70088,Savin Hill - Red Line - Alewife,Red,4,Savin Hill,,Alewife,42.310591,-71.053612,RapidTransit,,https://www.mbta.com/stops/place-shmnl,level_0_platform,0,place-shmnl,1,Boston,,,1
70089,70089,Fields Corner - Red Line - Ashmont,Red,15,Fields Corner,,Ashmont,42.299993,-71.062021,RapidTransit,,https://www.mbta.com/stops/place-fldcr,level_1_platform,0,place-fldcr,1,Boston,,,1
70090,70090,Fields Corner - Red Line - Alewife,Red,3,Fields Corner,,Alewife,42.299935,-71.061945,RapidTransit,,https://www.mbta.com/stops/place-fldcr,level_1_platform,0,place-fldcr,1,Boston,,,1
70091,70091,Shawmut - Red Line - Ashmont,Red,16,Shawmut,,Ashmont,42.293126,-71.065738,RapidTransit,,https://www.mbta.com/stops/place-smmnl,level_-1_platform,0,place-smmnl,1,Boston,,,1
70092,70092,Shawmut - Red Line - Alewife,Red,2,Shawmut,,Alewife,42.293126,-71.065738,RapidTransit,,https://www.mbta.com/stops/place-smmnl,level_-1_platform,0,place-smmnl,1,Boston,,,1
70093,70093,Ashmont - Red Line - Exit Only,Red,17,Ashmont,,Exit Only,42.284508,-71.063833,RapidTransit,,https://www.mbta.com/stops/place-asmnl,level_-1_platform,0,place-asmnl,1,Boston,,,1
70094,70094,Ashmont - Red Line - Alewife,Red,1,Ashmont,,Alewife,42.28453,-71.063725,RapidTransit,,https://www.mbta.com/stops/place-asmnl,level_-1_platform,0,place-asmnl,1,Boston,,,1
70095,70095,JFK/UMass - Red Line - Braintree,Red,13,JFK/UMass,,Braintree,42.320418,-71.052287,RapidTransit,,https://www.mbta.com/stops/place-jfk,level_0_red_platform,0,place-jfk,1,Boston,,,1
70096,70096,JFK/UMass - Red Line - Alewife (from Braintree),Red,10,JFK/UMass,,Alewife (from Braintree),42.320434,-71.052215,RapidTransit,,https://www.mbta.com/stops/place-jfk,level_0_red_platform,0,place-jfk,1,Boston,,,1
70097,70097,North Quincy - Red Line - Braintree,Red,18,North Quincy,2,Braintree,42.27577,-71.030194,RapidTransit,,https://www.mbta.com/stops/place-nqncy,level_0_platform,0,place-nqncy,1,Quincy,,,1
70098,70098,North Quincy - Red Line - Alewife,Red,9,North Quincy,1,Alewife,42.275802,-71.030144,RapidTransit,,https://www.mbta.com/stops/place-nqncy,level_0_platform,0,place-nqncy,1,Quincy,,,1
70099,70099,Wollaston - Red Line - Braintree,Red,19,Wollaston,,Braintree,42.266762,-71.020542,RapidTransit,,https://www.mbta.com/stops/place-wlsta,level_1_platform,0,place-wlsta,1,Quincy,,,1
70100,70100,Wollaston - Red Line - Alewife,Red,8,Wollaston,,Alewife,42.266788,-71.020457,RapidTransit,,https://www.mbta.com/stops/place-wlsta,level_1_platform,0,place-wlsta,1,Quincy,,,1
70101,70101,Quincy Center - Red Line - Braintree,Red,20,Quincy Center,2,Braintree,42.251809,-71.005409,RapidTransit,,https://www.mbta.com/stops/place-qnctr,level_-1_red_platform,0,place-qnctr,1,Quincy,,,1
70102,70102,Quincy Center - Red Line - Alewife,Red,7,Quincy Center,1,Alewife,42.251809,-71.005409,RapidTransit,,https://www.mbta.com/stops/place-qnctr,level_-1_red_platform,0,place-qnctr,1,Quincy,,,1
70103,70103,Quincy Adams - Red Line - Braintree,Red,21,Quincy Adams,,Braintree,42.233391,-71.007153,RapidTransit,,https://www.mbta.com/stops/place-qamnl,level_1_platform,0,place-qamnl,1,Quincy,,,1
70104,70104,Quincy Adams - Red Line - Alewife,Red,6,Quincy Adams,,Alewife,42.233391,-71.007153,RapidTransit,,https://www.mbta.com/stops/place-qamnl,level_1_platform,0,place-qamnl,1,Quincy,,,1
70105,70105,Braintree - Red Line,Red,22,Braintree,,Red Line,42.207424,-71.001645,RapidTransit,,https://www.mbta.com/stops/place-brntn,level_1_red_platform,0,place-brntn,1,Braintree,,,1
Alewife-01,,Alewife - Red Line - Track 1,Red,1,Alewife,1,Track 1,42.395428,-71.142483,RapidTransit,,https://www.mbta.com/stops/place-alfcl,level_-2_platform,0,place-alfcl,1,Cambridge,,,1
Alewife-02,,Alewife - Red Line - Track 2,Red,23,Alewife,2,Track 2,42.395428,-71.142483,RapidTransit,,https://www.mbta.com/stops/place-alfcl,level_-2_platform,0,place-alfcl,1,Cambridge,,,1
Braintree-01,,Braintree - Red Line - Track 1,Red,5,Braintree,1,Track 1,42.207428,-71.0016,RapidTransit,,https://www.mbta.com/stops/place-brntn,level_1_red_platform,0,place-brntn,1,Braintree,,,1
Braintree-02,,Braintree - Red Line - Track 2,Red,23,Braintree,2,Track 2,42.207428,-71.001704,RapidTransit,,https://www.mbta.com/stops/place-brntn,level_1_red_platform,0,place-brntn,1,Braintree,,,1